{
  "_note": "Curated list of ~30 globally significant ports. UN/LOCODE is the 5-char code used by IMO/UNECE for each facility.",
  "ports": [
    { "unlocode": "SGSIN", "name": "Singapore", "country": "Singapore", "lat": 1.2647, "lon": 103.8200 },
    { "unlocode": "NLRTM", "name": "Rotterdam", "country": "Netherlands", "lat": 51.9500, "lon": 4.1400 },
    { "unlocode": "CNSHA", "name": "Shanghai", "country": "China", "lat": 31.2304, "lon": 121.4737 },
    { "unlocode": "CNNGB", "name": "Ningbo-Zhoushan", "country": "China", "lat": 29.8683, "lon": 121.8850 },
    { "unlocode": "CNSZX", "name": "Shenzhen", "country": "China", "lat": 22.5431, "lon": 114.0579 },
    { "unlocode": "CNQIN", "name": "Qingdao", "country": "China", "lat": 36.0671, "lon": 120.3826 },
    { "unlocode": "CNTNJ", "name": "Tianjin", "country": "China", "lat": 39.0042, "lon": 117.7147 },
    { "unlocode": "HKHKG", "name": "Hong Kong", "country": "Hong Kong", "lat": 22.3193, "lon": 114.1694 },
    { "unlocode": "KRPUS", "name": "Busan", "country": "South Korea", "lat": 35.1031, "lon": 129.0403 },
    { "unlocode": "JPYOK", "name": "Yokohama", "country": "Japan", "lat": 35.4437, "lon": 139.6380 },
    { "unlocode": "JPUKB", "name": "Kobe", "country": "Japan", "lat": 34.6807, "lon": 135.1927 },
    { "unlocode": "USLAX", "name": "Los Angeles", "country": "United States", "lat": 33.7406, "lon": -118.2706 },
    { "unlocode": "USLGB", "name": "Long Beach", "country": "United States", "lat": 33.7701, "lon": -118.1937 },
    { "unlocode": "USNYC", "name": "New York & New Jersey", "country": "United States", "lat": 40.6655, "lon": -74.0454 },
    { "unlocode": "USSEA", "name": "Seattle–Tacoma", "country": "United States", "lat": 47.6062, "lon": -122.3321 },
    { "unlocode": "USHOU", "name": "Houston", "country": "United States", "lat": 29.7633, "lon": -95.2574 },
    { "unlocode": "USSAV", "name": "Savannah", "country": "United States", "lat": 32.0835, "lon": -81.0998 },
    { "unlocode": "CAVAN", "name": "Vancouver", "country": "Canada", "lat": 49.2867, "lon": -123.1139 },
    { "unlocode": "PAMIT", "name": "Colón / Panama Canal", "country": "Panama", "lat": 9.3550, "lon": -79.9000 },
    { "unlocode": "BRSSZ", "name": "Santos", "country": "Brazil", "lat": -23.9838, "lon": -46.2991 },
    { "unlocode": "BEANR", "name": "Antwerp", "country": "Belgium", "lat": 51.2304, "lon": 4.4149 },
    { "unlocode": "DEHAM", "name": "Hamburg", "country": "Germany", "lat": 53.5413, "lon": 9.9807 },
    { "unlocode": "ESVLC", "name": "Valencia", "country": "Spain", "lat": 39.4459, "lon": -0.3194 },
    { "unlocode": "ESBCN", "name": "Barcelona", "country": "Spain", "lat": 41.3447, "lon": 2.1697 },
    { "unlocode": "ITGOA", "name": "Genoa", "country": "Italy", "lat": 44.4056, "lon": 8.9463 },
    { "unlocode": "GRPIR", "name": "Piraeus", "country": "Greece", "lat": 37.9472, "lon": 23.6373 },
    { "unlocode": "EGPSD", "name": "Port Said / Suez", "country": "Egypt", "lat": 31.2565, "lon": 32.2841 },
    { "unlocode": "AEJEA", "name": "Jebel Ali", "country": "United Arab Emirates", "lat": 25.0100, "lon": 55.0614 },
    { "unlocode": "INNSA", "name": "Nhava Sheva (Mumbai)", "country": "India", "lat": 18.9499, "lon": 72.9520 },
    { "unlocode": "AUBNE", "name": "Brisbane", "country": "Australia", "lat": -27.3833, "lon": 153.1667 },
    { "unlocode": "ZADUR", "name": "Durban", "country": "South Africa", "lat": -29.8667, "lon": 31.0333 },
    { "unlocode": "MAPTM", "name": "Tanger Med", "country": "Morocco", "lat": 35.8833, "lon": -5.5000 }
  ]
}
